{ "type":"Topology",
 "objects": { "type": "GeometryCollection", "geometries": [{"type":"Point","properties": { "name":" Aberystwyth University " ,"count":"1"} ,"coordinates":[-4.0630663,52.4155239] } ,
{"type":"Point","properties": { "name":" Anadolu University " ,"count":"1"} ,"coordinates":[30.4989925,39.7915364] } ,
{"type":"Point","properties": { "name":" Ariel University " ,"count":"1"} ,"coordinates":[34.807122,32.0688302] } ,
{"type":"Point","properties": { "name":" Arizona State University " ,"count":"5"} ,"coordinates":[-111.9257049,33.4106925] } ,
{"type":"Point","properties": { "name":" Asahi University " ,"count":"3"} ,"coordinates":[136.6905651,35.3817621] } ,
{"type":"Point","properties": { "name":" Auburn University " ,"count":"1"} ,"coordinates":[-85.4951663,32.5933574] } ,
{"type":"Point","properties": { "name":" Baltimore " ,"count":"2"} ,"coordinates":[-76.6121893,39.2903848] } ,
{"type":"Point","properties": { "name":" Bar-Ilan University " ,"count":"1"} ,"coordinates":[34.8430876,32.0691989] } ,
{"type":"Point","properties": { "name":" Beijing Jiaotong University " ,"count":"1"} ,"coordinates":[116.343155,39.9522209] } ,
{"type":"Point","properties": { "name":" Beijing Normal University " ,"count":"3"} ,"coordinates":[116.455272,40.022248] } ,
{"type":"Point","properties": { "name":"Beuth Hochschule Luxemburger Straße 10 13353 Berlin" ,"count":"1"} ,"coordinates":[13.3515848,52.5451745] } ,
{"type":"Point","properties": { "name":" Brown University " ,"count":"2"} ,"coordinates":[-71.4025482,41.8267718] } ,
{"type":"Point","properties": { "name":" Instituto Tecnologico y de Estudios Superiores de Monterrey" ,"count":"1"} ,"coordinates":[-100.289508,25.651662] } ,
{"type":"Point","properties": { "name":" Brunel University " ,"count":"1"} ,"coordinates":[-0.4728554,51.5328475] } ,
{"type":"Point","properties": { "name":" Carl von Ossietzky University Oldenburg " ,"count":"1"} ,"coordinates":[8.1831239,53.1467333] } ,
{"type":"Point","properties": { "name":" Case Western Reserve University " ,"count":"7"} ,"coordinates":[-81.6083838,41.5043413] } ,
{"type":"Point","properties": { "name":" Cedars-Sinai Medical Ctr. " ,"count":"1"} ,"coordinates":[-118.3805177,34.0752969] } ,
{"type":"Point","properties": { "name":" CERN " ,"count":"1"} ,"coordinates":[6.0552787,46.2329908] } ,
{"type":"Point","properties": { "name":" Chalmers University of Technology " ,"count":"1"} ,"coordinates":[11.9786903,57.6891181] } ,
{"type":"Point","properties": { "name":" Changchun University of Science and Technology " ,"count":"1"} ,"coordinates":[125.3032136,43.8343488] } ,
{"type":"Point","properties": { "name":" Chiba University " ,"count":"1"} ,"coordinates":[140.1035722,35.6277542] } ,
{"type":"Point","properties": { "name":" Children’s National Medical Ctr. " ,"count":"2"} ,"coordinates":[-77.0143318,38.9273157] } ,
{"type":"Point","properties": { "name":" Chongqing University " ,"count":"1"} ,"coordinates":[106.46608,29.564637] } ,
{"type":"Point","properties": { "name":" City University London " ,"count":"1"} ,"coordinates":[-0.1023356,51.5277383] } ,
{"type":"Point","properties": { "name":" City University of Hong Kong " ,"count":"2"} ,"coordinates":[114.1720025,22.3374868] } ,
{"type":"Point","properties": { "name":" Cleveland State University " ,"count":"2"} ,"coordinates":[-81.6743859,41.5027328] } ,
{"type":"Point","properties": { "name":" Clínica University de Navarra " ,"count":"2"} ,"coordinates":[-1.6621612,42.8056327] } ,
{"type":"Point","properties": { "name":" CNRS " ,"count":"1"} ,"coordinates":[103.819836,1.352083] } ,
{"type":"Point","properties": { "name":" Copenhagen University Hospital Rigshopitalet " ,"count":"3"} ,"coordinates":[12.5683371,55.6760968] } ,
{"type":"Point","properties": { "name":" Cornell University " ,"count":"4"} ,"coordinates":[-76.4735027,42.4534492] } ,
{"type":"Point","properties": { "name":" Covenant University " ,"count":"1"} ,"coordinates":[3.1576914,6.670009] } ,
{"type":"Point","properties": { "name":" Ctr Hospitalier de l’University de Montréal " ,"count":"1"} ,"coordinates":[-73.5772947,45.5135604] } ,
{"type":"Point","properties": { "name":" Ctr. Hospitalier de l’University de Montréal " ,"count":"1"} ,"coordinates":[-73.5772947,45.5135604] } ,
{"type":"Point","properties": { "name":" Ctr. Hospitalier Régional University de Nîmes " ,"count":"1"} ,"coordinates":[4.360054,43.836699] } ,
{"type":"Point","properties": { "name":"University Hospital of Lausanne Rue du Bugnon 46 1011 Lausanne" ,"count":"1"} ,"coordinates":[6.6426939,46.5249808] } ,
{"type":"Point","properties": { "name":"Delphinus Medical Technologies  Inc. 46701 Commerce Center Drive Plymouth  MI 48170" ,"count":"1"} ,"coordinates":[-83.5053393,42.3842062] } ,
{"type":"Point","properties": { "name":" DePaul University " ,"count":"2"} ,"coordinates":[-87.6550784,41.9239994] } ,
{"type":"Point","properties": { "name":" Duke University " ,"count":"19"} ,"coordinates":[-91.649501,41.9197689] } ,
{"type":"Point","properties": { "name":" Duke University Medical Ctr. " ,"count":"9"} ,"coordinates":[-78.9367251,36.0034714] } ,
{"type":"Point","properties": { "name":" Duke University School of Medicine " ,"count":"3"} ,"coordinates":[-78.9358103,36.0034778] } ,
{"type":"Point","properties": { "name":" East-West University " ,"count":"1"} ,"coordinates":[-93.24835,33.2900987] } ,
{"type":"Point","properties": { "name":" Emory University " ,"count":"13"} ,"coordinates":[-84.3239989,33.7925195] } ,
{"type":"Point","properties": { "name":" Florida International University " ,"count":"3"} ,"coordinates":[-80.376174,25.7581198] } ,
{"type":"Point","properties": { "name":" Fourth Military Medical University " ,"count":"3"} ,"coordinates":[108.9858356,34.270077] } ,
{"type":"Point","properties": { "name":" Friedrich-Alexander-University" ,"count":"1"} ,"coordinates":[11.0045507,49.5978804] } ,
{"type":"Point","properties": { "name":" Friedrich-Alexander-University Erlangen- Nürnberg " ,"count":"1"} ,"coordinates":[11.0273892,49.5737593] } ,
{"type":"Point","properties": { "name":" Fudan University " ,"count":"2"} ,"coordinates":[121.5036178,31.2974197] } ,
{"type":"Point","properties": { "name":" Fujita Health University " ,"count":"3"} ,"coordinates":[137.0005266,35.0702249] } ,
{"type":"Point","properties": { "name":" Georg-August-University Göttingen " ,"count":"1"} ,"coordinates":[9.9374004,51.5408116] } ,
{"type":"Point","properties": { "name":" Georgetown University Medical Ctr. " ,"count":"1"} ,"coordinates":[-84.504753,38.030727] } ,
{"type":"Point","properties": { "name":" Gifu University of Medical Science " ,"count":"6"} ,"coordinates":[136.9511678,35.4910469] } ,
{"type":"Point","properties": { "name":" Hangzhou Dianzi University " ,"count":"3"} ,"coordinates":[120.1403455,30.287688] } ,
{"type":"Point","properties": { "name":" Hankuk University of Foreign Studies " ,"count":"1"} ,"coordinates":[127.063572,37.596157] } ,
{"type":"Point","properties": { "name":" Harbin University of Science and Technology " ,"count":"3"} ,"coordinates":[126.6146033,45.7150614] } ,
{"type":"Point","properties": { "name":" HES-SO Valais " ,"count":"2"} ,"coordinates":[7.539001,46.2830212] } ,
{"type":"Point","properties": { "name":" Hiroshima University " ,"count":"1"} ,"coordinates":[132.4572371,34.3804556] } ,
{"type":"Point","properties": { "name":" Hosei University " ,"count":"1"} ,"coordinates":[139.7413987,35.6955341] } ,
{"type":"Point","properties": { "name":" Hospital of the University of Pennsylvania " ,"count":"1"} ,"coordinates":[-75.1937521,39.9501355] } ,
{"type":"Point","properties": { "name":" Huazhong University of Science and Technology " ,"count":"8"} ,"coordinates":[114.413666,30.507905] } ,
{"type":"Point","properties": { "name":" Inc. " ,"count":"2"} ,"coordinates":[-73.998333,40.724167] } ,
{"type":"Point","properties": { "name":" Indiana University School of Medicine (United" ,"count":"1"} ,"coordinates":[-86.1349019,40.2671941] } ,
{"type":"Point","properties": { "name":" INSERM " ,"count":"1"} ,"coordinates":[2.3140598,48.843468] } ,
{"type":"Point","properties": { "name":" International University of Health and Welfare " ,"count":"1"} ,"coordinates":[140.0696431,36.870994] } ,
{"type":"Point","properties": { "name":" Iowa Institute for Biomedical Imaging " ,"count":"1"} ,"coordinates":[-93.097702,41.8780025] } ,
{"type":"Point","properties": { "name":" Johannes Gutenberg-University" ,"count":"1"} ,"coordinates":[8.2415552,49.9926403] } ,
{"type":"Point","properties": { "name":" Johns Hopkins University " ,"count":"32"} ,"coordinates":[-76.6205177,39.3299013] } ,
{"type":"Point","properties": { "name":" Kanazawa University " ,"count":"2"} ,"coordinates":[136.6771907,36.5548876] } ,
{"type":"Point","properties": { "name":" Kobe University Graduate School of Medicine " ,"count":"2"} ,"coordinates":[135.1955112,34.690083] } ,
{"type":"Point","properties": { "name":" Kumamoto University " ,"count":"1"} ,"coordinates":[130.7279202,32.8128305] } ,
{"type":"Point","properties": { "name":" Kyoto University " ,"count":"5"} ,"coordinates":[135.7808218,35.0262444] } ,
{"type":"Point","properties": { "name":" Lehigh University " ,"count":"1"} ,"coordinates":[-75.3782832,40.6069087] } ,
{"type":"Point","properties": { "name":" Leibniz University Hannover " ,"count":"7"} ,"coordinates":[9.7196989,52.3829641] } ,
{"type":"Point","properties": { "name":" Leiden University Medical Ctr. " ,"count":"7"} ,"coordinates":[4.4970097,52.1601144] } ,
{"type":"Point","properties": { "name":" London Health Sciences Ctr. " ,"count":"1"} ,"coordinates":[-81.2266284,42.9603485] } ,
{"type":"Point","properties": { "name":" Los Alamos National Lab. " ,"count":"1"} ,"coordinates":[-106.287162,35.8440582] } ,
{"type":"Point","properties": { "name":" Loughborough University " ,"count":"1"} ,"coordinates":[-1.2333126,52.7641408] } ,
{"type":"Point","properties": { "name":" Loyola University (United" ,"count":"1"} ,"coordinates":[80.2344005,13.063098] } ,
{"type":"Point","properties": { "name":" Ludwig-Maximilians-University München " ,"count":"1"} ,"coordinates":[11.5810441,48.1508394] } ,
{"type":"Point","properties": { "name":" Lund University " ,"count":"1"} ,"coordinates":[13.203493,55.7119483] } ,
{"type":"Point","properties": { "name":" Marquette University " ,"count":"1"} ,"coordinates":[-87.9304238,43.0388508] } ,
{"type":"Point","properties": { "name":" Massachusetts General Hospital " ,"count":"2"} ,"coordinates":[-71.0688561,42.3631995] } ,
{"type":"Point","properties": { "name":" Mayo Clinic Arizona " ,"count":"2"} ,"coordinates":[-111.7927669,33.5852073] } ,
{"type":"Point","properties": { "name":" McGill University " ,"count":"1"} ,"coordinates":[-73.5771511,45.5047847] } ,
{"type":"Point","properties": { "name":" McMaster University " ,"count":"6"} ,"coordinates":[-79.9192254,43.260879] } ,
{"type":"Point","properties": { "name":" Medizinische University Wien " ,"count":"6"} ,"coordinates":[16.3517188,48.2196573] } ,
{"type":"Point","properties": { "name":" Monash University " ,"count":"2"} ,"coordinates":[145.0444169,-37.8763311] } ,
{"type":"Point","properties": { "name":" Nagoya Bunri University " ,"count":"1"} ,"coordinates":[136.791412,35.248324] } ,
{"type":"Point","properties": { "name":" Nagoya University " ,"count":"16"} ,"coordinates":[136.9676149,35.1544624] } ,
{"type":"Point","properties": { "name":" Nanchang University " ,"count":"1"} ,"coordinates":[115.812416,28.665226] } ,
{"type":"Point","properties": { "name":" Nanjing Medical University " ,"count":"1"} ,"coordinates":[118.774763,32.043846] } ,
{"type":"Point","properties": { "name":" Nanyang Technological University " ,"count":"1"} ,"coordinates":[103.6831347,1.3483099] } ,
{"type":"Point","properties": { "name":" National and Kapodistrian University of Athens " ,"count":"1"} ,"coordinates":[23.7786871,37.968196] } ,
{"type":"Point","properties": { "name":" National Taiwan University " ,"count":"1"} ,"coordinates":[121.5397518,25.0173405] } ,
{"type":"Point","properties": { "name":" National Taiwan University College of Medicine " ,"count":"1"} ,"coordinates":[121.5196145,25.0395616] } ,
{"type":"Point","properties": { "name":" New York University Langone Medical Ctr. " ,"count":"1"} ,"coordinates":[-73.9742482,40.7420922] } ,
{"type":"Point","properties": { "name":" New York University School of Medicine " ,"count":"1"} ,"coordinates":[-73.9412346,40.8411617] } ,
{"type":"Point","properties": { "name":" Norfolk and Norwich University Hospital " ,"count":"1"} ,"coordinates":[1.2206089,52.6170025] } ,
{"type":"Point","properties": { "name":" Northeastern University " ,"count":"2"} ,"coordinates":[123.4197519,41.7697444] } ,
{"type":"Point","properties": { "name":" Northeastern University " ,"count":"1"} ,"coordinates":[-71.0891717,42.3398067] } ,
{"type":"Point","properties": { "name":" Old Dominion University " ,"count":"2"} ,"coordinates":[-76.3043925,36.8860153] } ,
{"type":"Point","properties": { "name":" Peter MacCallum Cancer Ctr. " ,"count":"1"} ,"coordinates":[144.9774,-37.81152] } ,
{"type":"Point","properties": { "name":" Pontificia University Católica del Perú " ,"count":"3"} ,"coordinates":[-77.0801899,-12.0689431] } ,
{"type":"Point","properties": { "name":" Princeton University " ,"count":"1"} ,"coordinates":[-74.6514481,40.3439888] } ,
{"type":"Point","properties": { "name":" Purdue University " ,"count":"1"} ,"coordinates":[-86.9211946,40.4237054] } ,
{"type":"Point","properties": { "name":" Pusan National University (Korea" ,"count":"1"} ,"coordinates":[129.080029,35.19555] } ,
{"type":"Point","properties": { "name":" Queen’s University " ,"count":"5"} ,"coordinates":[-73.9211755,45.5698175] } ,
{"type":"Point","properties": { "name":" Radboud University Nijmegen Medical Ctr. " ,"count":"14"} ,"coordinates":[5.8598336,51.8236175] } ,
{"type":"Point","properties": { "name":" Rice University " ,"count":"1"} ,"coordinates":[-95.4018312,29.7173941] } ,
{"type":"Point","properties": { "name":" Ritsumeikan University " ,"count":"2"} ,"coordinates":[135.7233044,35.0325561] } ,
{"type":"Point","properties": { "name":" Robarts Research Institute " ,"count":"3"} ,"coordinates":[-81.2738213,43.0117613] } ,
{"type":"Point","properties": { "name":" Rochester University " ,"count":"1"} ,"coordinates":[-77.6260033,43.1305531] } ,
{"type":"Point","properties": { "name":" Ruhr-University Bochum " ,"count":"1"} ,"coordinates":[7.2616093,51.4456659] } ,
{"type":"Point","properties": { "name":" Ruprecht-Karls-University Heidelberg " ,"count":"4"} ,"coordinates":[8.6702492,49.4191402] } ,
{"type":"Point","properties": { "name":" Rush University Medical Ctr." ,"count":"1"} ,"coordinates":[-87.668657,41.8746935] } ,
{"type":"Point","properties": { "name":" RWTH Aachen University " ,"count":"5"} ,"coordinates":[6.0656869,50.7800778] } ,
{"type":"Point","properties": { "name":" Seoul National University Hospital (Korea" ,"count":"1"} ,"coordinates":[-118.3061539,34.0623526] } ,
{"type":"Point","properties": { "name":" Seoul Women’s University (Korea" ,"count":"1"} ,"coordinates":[126.945857,37.556761] } ,
{"type":"Point","properties": { "name":" Shanghai Jiaotong University " ,"count":"2"} ,"coordinates":[121.435256,31.202264] } ,
{"type":"Point","properties": { "name":"University of Cincinnati " ,"count":"1"} ,"coordinates":[-84.5149504,39.1329219] } ,
{"type":"Point","properties": { "name":" Shenzhen University " ,"count":"1"} ,"coordinates":[113.944253,22.538766] } ,
{"type":"Point","properties": { "name":" Sogang University (Korea" ,"count":"4"} ,"coordinates":[126.9407529,37.5513365] } ,
{"type":"Point","properties": { "name":" Soochow University " ,"count":"3"} ,"coordinates":[120.732576,31.268105] } ,
{"type":"Point","properties": { "name":" Southeast University " ,"count":"3"} ,"coordinates":[118.794211,32.055982] } ,
{"type":"Point","properties": { "name":" Southern Illinois University Carbondale " ,"count":"2"} ,"coordinates":[-89.2116506,37.7138335] } ,
{"type":"Point","properties": { "name":" Southern Medical University " ,"count":"1"} ,"coordinates":[113.0021958,23.7347019] } ,
{"type":"Point","properties": { "name":" Stanford University " ,"count":"10"} ,"coordinates":[-122.169719,37.4274745] } ,
{"type":"Point","properties": { "name":" Stony Brook University " ,"count":"10"} ,"coordinates":[-73.1233889,40.9123761] } ,
{"type":"Point","properties": { "name":" Sun Yat-Sen University " ,"count":"1"} ,"coordinates":[113.293061,23.092071] } ,
{"type":"Point","properties": { "name":" SUNY Upstate Medical University " ,"count":"1"} ,"coordinates":[-75.8680785,42.1060286] } ,
{"type":"Point","properties": { "name":" Syracuse University " ,"count":"1"} ,"coordinates":[-76.1351158,43.0391534] } ,
{"type":"Point","properties": { "name":" Taishan Medical University " ,"count":"1"} ,"coordinates":[117.1029282,36.2017589] } ,
{"type":"Point","properties": { "name":" Technical University of Denmark " ,"count":"4"} ,"coordinates":[12.521381,55.7855742] } ,
{"type":"Point","properties": { "name":" Technische University Delft " ,"count":"4"} ,"coordinates":[4.3764585,51.9983106] } ,
{"type":"Point","properties": { "name":" Technische University Eindhoven " ,"count":"2"} ,"coordinates":[5.4907148,51.4486098] } ,
{"type":"Point","properties": { "name":" Technische University Hamburg-Harburg " ,"count":"1"} ,"coordinates":[9.96844,53.4634] } ,
{"type":"Point","properties": { "name":" Technische University München " ,"count":"7"} ,"coordinates":[11.5678602,48.14966] } ,
{"type":"Point","properties": { "name":" Tel Aviv University " ,"count":"6"} ,"coordinates":[34.8043877,32.1133141] } ,
{"type":"Point","properties": { "name":" Texas A&M University " ,"count":"1"} ,"coordinates":[-99.9018131,31.9685988] } ,
{"type":"Point","properties": { "name":" The Australian National University " ,"count":"1"} ,"coordinates":[149.118527,-35.2776999] } ,
{"type":"Point","properties": { "name":" The George Washington University " ,"count":"1"} ,"coordinates":[-77.0485992,38.8997145] } ,
{"type":"Point","properties": { "name":" The Ohio State University " ,"count":"3"} ,"coordinates":[-83.0309143,40.0141905] } ,
{"type":"Point","properties": { "name":" The Pennsylvania State University " ,"count":"1"} ,"coordinates":[-77.8599084,40.7982133] } ,
{"type":"Point","properties": { "name":" Royal Surrey County Hospital Egerton Road Guildford  Surrey GU2 7XX " ,"count":"2"} ,"coordinates":[-0.607442,51.24102] } ,
{"type":"Point","properties": { "name":" The State University of New York " ,"count":"1"} ,"coordinates":[-73.9910637,40.7543546] } ,
{"type":"Point","properties": { "name":" The University of Alabama at Birmingham " ,"count":"1"} ,"coordinates":[-86.8095148,33.4964621] } ,
{"type":"Point","properties": { "name":" The University of Arizona " ,"count":"6"} ,"coordinates":[-110.9501094,32.2318851] } ,
{"type":"Point","properties": { "name":" The University of British Columbia " ,"count":"12"} ,"coordinates":[-123.2459939,49.2606052] } ,
{"type":"Point","properties": { "name":" The University of Chicago Medical Ctr. " ,"count":"11"} ,"coordinates":[-87.5854221,41.7586389] } ,
{"type":"Point","properties": { "name":" The University of Debrecen " ,"count":"2"} ,"coordinates":[21.641279,47.537061] } ,
{"type":"Point","properties": { "name":" The University of Edinburgh " ,"count":"1"} ,"coordinates":[-3.1892413,55.9445158] } ,
{"type":"Point","properties": { "name":" The University of Iowa " ,"count":"12"} ,"coordinates":[-91.5548998,41.6626963] } ,
{"type":"Point","properties": { "name":" The University of Manchester " ,"count":"2"} ,"coordinates":[-2.2338837,53.4668498] } ,
{"type":"Point","properties": { "name":" The University of Melbourne " ,"count":"3"} ,"coordinates":[144.9611738,-37.7963689] } ,
{"type":"Point","properties": { "name":" The University of Minnesota" ,"count":"1"} ,"coordinates":[-93.2277285,44.97399] } ,
{"type":"Point","properties": { "name":" The University of New Mexico " ,"count":"1"} ,"coordinates":[-106.6197812,35.0843187] } ,
{"type":"Point","properties": { "name":" The University of North Carolina at Chapel Hill " ,"count":"18"} ,"coordinates":[-79.0469134,35.9049122] } ,
{"type":"Point","properties": { "name":" The University of Oklahoma " ,"count":"14"} ,"coordinates":[-97.4457137,35.2058936] } ,
{"type":"Point","properties": { "name":" The University of Pennsylvania Health System " ,"count":"4"} ,"coordinates":[-75.1694547,40.0085718] } ,
{"type":"Point","properties": { "name":" The University of Sheffield " ,"count":"2"} ,"coordinates":[-1.4879469,53.3809409] } ,
{"type":"Point","properties": { "name":" The University of Southern California " ,"count":"7"} ,"coordinates":[-118.285117,34.0223519] } ,
{"type":"Point","properties": { "name":" The University of Sydney " ,"count":"8"} ,"coordinates":[151.1873473,-33.888584] } ,
{"type":"Point","properties": { "name":" The University of Texas at Arlington " ,"count":"1"} ,"coordinates":[-97.1147739,32.7304682] } ,
{"type":"Point","properties": { "name":" The University of Texas at Austin " ,"count":"2"} ,"coordinates":[-97.7340567,30.2849185] } ,
{"type":"Point","properties": { "name":" The University of Texas at El Paso " ,"count":"4"} ,"coordinates":[-106.5057332,31.7730893] } ,
{"type":"Point","properties": { "name":" The University of Texas Health Science Ctr. at San Antonio" ,"count":"1"} ,"coordinates":[-98.5739819,29.5080361] } ,
{"type":"Point","properties": { "name":" The University of Texas M.D. Anderson Cancer Ctr. " ,"count":"3"} ,"coordinates":[-95.3971624,29.7070648] } ,
{"type":"Point","properties": { "name":" The University of Texas Southwestern Medical Ctr. at Dallas " ,"count":"8"} ,"coordinates":[-96.8451515,32.815998] } ,
{"type":"Point","properties": { "name":" The University of Tokyo " ,"count":"3"} ,"coordinates":[139.761989,35.7126775] } ,
{"type":"Point","properties": { "name":" The University of Utah " ,"count":"2"} ,"coordinates":[-111.8421021,40.7649368] } ,
{"type":"Point","properties": { "name":" The University of Warwick " ,"count":"6"} ,"coordinates":[-1.5614704,52.3792525] } ,
{"type":"Point","properties": { "name":" The University of Western Ontario " ,"count":"8"} ,"coordinates":[-81.2737336,43.0095971] } ,
{"type":"Point","properties": { "name":" The University of Sydney " ,"count":"1"} ,"coordinates":[151.1873473,-33.888584] } ,
{"type":"Point","properties": { "name":" The Winship Cancer Institute of Emory University " ,"count":"1"} ,"coordinates":[-84.3194004,33.7927531] } ,
{"type":"Point","properties": { "name":" Tohoku University " ,"count":"3"} ,"coordinates":[140.8741224,38.2538016] } ,
{"type":"Point","properties": { "name":" Tokai Gakuin University " ,"count":"1"} ,"coordinates":[136.8183315,35.4239325] } ,
{"type":"Point","properties": { "name":"Toshiba Stroke Research Center Suny University At Buffalo 3435 Main Street Buffalo  NY 14214" ,"count":"1"} ,"coordinates":[-78.8182286,42.9534312] } ,
{"type":"Point","properties": { "name":" Tsinghua University " ,"count":"2"} ,"coordinates":[116.3264439,39.9996674] } ,
{"type":"Point","properties": { "name":" U.S. Food and Drug Administration " ,"count":"1"} ,"coordinates":[-122.7366748,49.0015995] } ,
{"type":"Point","properties": { "name":" Univeristy at Albany" ,"count":"1"} ,"coordinates":[-73.822852,42.686744] } ,
{"type":"Point","properties": { "name":" Univeristy degli Studi di Genova " ,"count":"1"} ,"coordinates":[8.9588456,44.4029344] } ,
{"type":"Point","properties": { "name":" Univeristy do Minho " ,"count":"1"} ,"coordinates":[-8.397568,41.557583] } ,
{"type":"Point","properties": { "name":" Univeristy of Illinois at Chicago " ,"count":"1"} ,"coordinates":[-87.6716747,41.8700726] } ,
{"type":"Point","properties": { "name":" Univeristy of Ljubljana " ,"count":"1"} ,"coordinates":[14.5041552,46.0491938] } ,
{"type":"Point","properties": { "name":" Univeristy of Rochester Medical Ctr " ,"count":"4"} ,"coordinates":[-77.6231754,43.1239569] } ,
{"type":"Point","properties": { "name":" Univeristy of Tokushima " ,"count":"1"} ,"coordinates":[134.559832,34.069998] } ,
{"type":"Point","properties": { "name":" University at Albany " ,"count":"3"} ,"coordinates":[-73.822852,42.686744] } ,
{"type":"Point","properties": { "name":" University at Buffalo " ,"count":"5"} ,"coordinates":[-78.7889697,43.0008093] } ,
{"type":"Point","properties": { "name":" University Bern " ,"count":"1"} ,"coordinates":[7.438119,46.9504896] } ,
{"type":"Point","properties": { "name":" University Carlos III de Madrid" ,"count":"2"} ,"coordinates":[-3.765171,40.3332258] } ,
{"type":"Point","properties": { "name":" University College London " ,"count":"4"} ,"coordinates":[-0.1340401,51.5245592] } ,
{"type":"Point","properties": { "name":" University de Antioquía " ,"count":"1"} ,"coordinates":[-75.5689946,6.2675767] } ,
{"type":"Point","properties": { "name":" University de Bourgogne " ,"count":"1"} ,"coordinates":[5.0703447,47.3117503] } ,
{"type":"Point","properties": { "name":" University de Girona " ,"count":"1"} ,"coordinates":[2.836908,41.967092] } ,
{"type":"Point","properties": { "name":" University de Lorraine " ,"count":"1"} ,"coordinates":[6.4525235,48.1678793] } ,
{"type":"Point","properties": { "name":" University de Nantes " ,"count":"3"} ,"coordinates":[-1.5165,47.282475] } ,
{"type":"Point","properties": { "name":" University de Navarra " ,"count":"2"} ,"coordinates":[-1.664868,42.8041607] } ,
{"type":"Point","properties": { "name":" University de São Paulo " ,"count":"13"} ,"coordinates":[-46.7307891,-23.5613991] } ,
{"type":"Point","properties": { "name":" University de Sevilla " ,"count":"1"} ,"coordinates":[-5.9912307,37.3807579] } ,
{"type":"Point","properties": { "name":" University de Strasbourg " ,"count":"2"} ,"coordinates":[7.7640952,48.5762185] } ,
{"type":"Point","properties": { "name":" University degli Studi di Genova " ,"count":"1"} ,"coordinates":[8.9588456,44.4029344] } ,
{"type":"Point","properties": { "name":" University degli Studi di Napoli Parthenope " ,"count":"1"} ,"coordinates":[14.256885,40.8464243] } ,
{"type":"Point","properties": { "name":" University degli Studi di Padova " ,"count":"1"} ,"coordinates":[11.8711379,45.4170203] } ,
{"type":"Point","properties": { "name":" University do Minho " ,"count":"4"} ,"coordinates":[-8.397568,41.557583] } ,
{"type":"Point","properties": { "name":" University Estadual de Campinas " ,"count":"4"} ,"coordinates":[-47.0648412,-22.8183207] } ,
{"type":"Point","properties": { "name":" University Heidelberg " ,"count":"1"} ,"coordinates":[8.6702492,49.4191402] } ,
{"type":"Point","properties": { "name":" University Hospital Aachen " ,"count":"5"} ,"coordinates":[6.0440425,50.7763431] } ,
{"type":"Point","properties": { "name":" University Hospital Hradec Králové " ,"count":"1"} ,"coordinates":[15.825211,50.2103605] } ,
{"type":"Point","properties": { "name":" University Hospital of South" ,"count":"1"} ,"coordinates":[-111.8366284,40.7715383] } ,
{"type":"Point","properties": { "name":" University Hospitals Coventry and Warwickshire NHS Trust " ,"count":"2"} ,"coordinates":[-1.519693,52.406822] } ,
{"type":"Point","properties": { "name":" University Hospitals of Cleveland " ,"count":"1"} ,"coordinates":[-81.605476,41.5050672] } ,
{"type":"Point","properties": { "name":" University Medical Ctr. Hamburg-Eppendorf " ,"count":"2"} ,"coordinates":[9.983889,53.595556] } ,
{"type":"Point","properties": { "name":" University Medical Ctr. Utrecht " ,"count":"6"} ,"coordinates":[5.179356,52.085677] } ,
{"type":"Point","properties": { "name":" University of Arkansas for Medical Sciences " ,"count":"1"} ,"coordinates":[-92.3231148,34.7498333] } ,
{"type":"Point","properties": { "name":" University of Batna " ,"count":"1"} ,"coordinates":[6.1687508,35.5493066] } ,
{"type":"Point","properties": { "name":" University of Calgary " ,"count":"3"} ,"coordinates":[-114.1358007,51.0781599] } ,
{"type":"Point","properties": { "name":" University of California. Irvine " ,"count":"1"} ,"coordinates":[-117.8442962,33.6404952] } ,
{"type":"Point","properties": { "name":" University of California. Los Angeles " ,"count":"2"} ,"coordinates":[-118.4451811,34.068921] } ,
{"type":"Point","properties": { "name":" University of California. San Francisco " ,"count":"2"} ,"coordinates":[-122.4258437,37.7716141] } ,
{"type":"Point","properties": { "name":" University of California. Santa Barbara " ,"count":"1"} ,"coordinates":[-119.848947,34.4139629] } ,
{"type":"Point","properties": { "name":" University of Central Florida " ,"count":"1"} ,"coordinates":[-81.2000599,28.6024274] } ,
{"type":"Point","properties": { "name":" University of Copenhagen " ,"count":"2"} ,"coordinates":[12.5724096,55.6802303] } ,
{"type":"Point","properties": { "name":" University of Dundee " ,"count":"1"} ,"coordinates":[-2.9821428,56.4582447] } ,
{"type":"Point","properties": { "name":" University of Electronic Science and Technology of China " ,"count":"1"} ,"coordinates":[104.100361,30.675104] } ,
{"type":"Point","properties": { "name":" University of Exeter" ,"count":"1"} ,"coordinates":[-3.5351475,50.7371369] } ,
{"type":"Point","properties": { "name":" University of Florida " ,"count":"7"} ,"coordinates":[-82.3549302,29.6436325] } ,
{"type":"Point","properties": { "name":" University of Groningen " ,"count":"1"} ,"coordinates":[6.5629872,53.2192634] } ,
{"type":"Point","properties": { "name":" University of Houston " ,"count":"5"} ,"coordinates":[-95.3422334,29.7199489] } ,
{"type":"Point","properties": { "name":" University of Illinois at Chicago " ,"count":"2"} ,"coordinates":[-87.6716747,41.8700726] } ,
{"type":"Point","properties": { "name":" University of Illinois at Urbana-Champaign " ,"count":"2"} ,"coordinates":[-88.2271615,40.1019523] } ,
{"type":"Point","properties": { "name":" University of Iowa" ,"count":"1"} ,"coordinates":[-91.5548998,41.6626963] } ,
{"type":"Point","properties": { "name":" University of Jinan " ,"count":"1"} ,"coordinates":[117.020607,36.630623] } ,
{"type":"Point","properties": { "name":" University of Ljubljana " ,"count":"3"} ,"coordinates":[14.5041552,46.0491938] } ,
{"type":"Point","properties": { "name":" University of Manchester Medical School " ,"count":"1"} ,"coordinates":[-2.2308254,53.4639416] } ,
{"type":"Point","properties": { "name":" University of Maryland" ,"count":"6"} ,"coordinates":[-76.9425543,38.9869183] } ,
{"type":"Point","properties": { "name":" University of Maryland Medical Ctr. " ,"count":"2"} ,"coordinates":[-76.6243752,39.2881658] } ,
{"type":"Point","properties": { "name":" University of Massachusetts Medical School " ,"count":"2"} ,"coordinates":[-71.7623198,42.275348] } ,
{"type":"Point","properties": { "name":" University of Medicine and Pharmacy Victor Babes Timisoara " ,"count":"2"} ,"coordinates":[21.2367385,45.7570128] } ,
{"type":"Point","properties": { "name":" University of Melbourne " ,"count":"1"} ,"coordinates":[144.9611738,-37.7963689] } ,
{"type":"Point","properties": { "name":" University of Michigan" ,"count":"1"} ,"coordinates":[-83.7382241,42.2780436] } ,
{"type":"Point","properties": { "name":" University of Michigan " ,"count":"12"} ,"coordinates":[-83.7382241,42.2780436] } ,
{"type":"Point","properties": { "name":" University of Minnesota " ,"count":"2"} ,"coordinates":[-93.2277285,44.97399] } ,
{"type":"Point","properties": { "name":" University of Nantes " ,"count":"1"} ,"coordinates":[-2.2583873,47.2521462] } ,
{"type":"Point","properties": { "name":" University of Notre Dame " ,"count":"1"} ,"coordinates":[-86.2353388,41.7055716] } ,
{"type":"Point","properties": { "name":" University of Ontario Institute of Technology " ,"count":"3"} ,"coordinates":[-80.994482,43.3678219] } ,
{"type":"Point","properties": { "name":" University of Otago" ,"count":"1"} ,"coordinates":[170.5144227,-45.8646835] } ,
{"type":"Point","properties": { "name":" University of Oxford " ,"count":"1"} ,"coordinates":[-1.2547037,51.7566341] } ,
{"type":"Point","properties": { "name":" University of Pennsylvania " ,"count":"11"} ,"coordinates":[-75.1932137,39.9522188] } ,
{"type":"Point","properties": { "name":" University of Pittsburgh " ,"count":"5"} ,"coordinates":[-79.960835,40.4443533] } ,
{"type":"Point","properties": { "name":" University of Rennes 1 " ,"count":"1"} ,"coordinates":[-1.6761251,48.1163828] } ,
{"type":"Point","properties": { "name":" University of Rochester Medical Ctr. " ,"count":"6"} ,"coordinates":[-77.6260033,43.1305531] } ,
{"type":"Point","properties": { "name":" University of Science and Technology of China " ,"count":"1"} ,"coordinates":[114.413666,30.507905] } ,
{"type":"Point","properties": { "name":" University of South Florida " ,"count":"4"} ,"coordinates":[-82.4138539,28.0587031] } ,
{"type":"Point","properties": { "name":" University of Strathclyde " ,"count":"2"} ,"coordinates":[-4.2425642,55.8610414] } ,
{"type":"Point","properties": { "name":" University of Surrey " ,"count":"8"} ,"coordinates":[-0.5895144,51.242722] } ,
{"type":"Point","properties": { "name":" University of Tokushima " ,"count":"4"} ,"coordinates":[134.559832,34.069998] } ,
{"type":"Point","properties": { "name":" University of Toronto " ,"count":"2"} ,"coordinates":[-79.3956564,43.6628917] } ,
{"type":"Point","properties": { "name":" University of Ulsan" ,"count":"1"} ,"coordinates":[129.256337,35.543932] } ,
{"type":"Point","properties": { "name":" University of Washington " ,"count":"7"} ,"coordinates":[-122.3035199,47.6553351] } ,
{"type":"Point","properties": { "name":" University of Waterloo " ,"count":"2"} ,"coordinates":[-80.5448576,43.4722854] } ,
{"type":"Point","properties": { "name":" University of Wisconsin-Madison " ,"count":"19"} ,"coordinates":[-89.4124875,43.076592] } ,
{"type":"Point","properties": { "name":" University Paris 13 " ,"count":"2"} ,"coordinates":[2.3410802,48.9570764] } ,
{"type":"Point","properties": { "name":" University Politecnica delle Marche" ,"count":"2"} ,"coordinates":[13.5150843,43.5862599] } ,
{"type":"Point","properties": { "name":" University Stuttgart " ,"count":"1"} ,"coordinates":[9.1742086,48.7820533] } ,
{"type":"Point","properties": { "name":" University Tecnológica Nacional " ,"count":"1"} ,"coordinates":[-60.6753004,-31.6170552] } ,
{"type":"Point","properties": { "name":" University Twente " ,"count":"2"} ,"coordinates":[6.8524271,52.2410328] } ,
{"type":"Point","properties": { "name":" University zu Lübeck " ,"count":"3"} ,"coordinates":[10.70097,53.83446] } ,
{"type":"Point","properties": { "name":" Universitätklinikum Schleswig-Holstein " ,"count":"1"} ,"coordinates":[10.1455387,54.3305627] } ,
{"type":"Point","properties": { "name":" UniversitätsKlinikum Heidelberg " ,"count":"3"} ,"coordinates":[8.6675984,49.419876] } ,
{"type":"Point","properties": { "name":" Université de Lorraine" ,"count":"1"} ,"coordinates":[6.4525235,48.1678793] } ,
{"type":"Point","properties": { "name":" University of Calgary " ,"count":"1"} ,"coordinates":[-114.1358007,51.0781599] } ,
{"type":"Point","properties": { "name":" University of Copenhagen " ,"count":"1"} ,"coordinates":[12.5724096,55.6802303] } ,
{"type":"Point","properties": { "name":" University of Michigan" ,"count":"1"} ,"coordinates":[-83.7382241,42.2780436] } ,
{"type":"Point","properties": { "name":" Utah Ctr. for Advanced Imaging Research " ,"count":"1"} ,"coordinates":[-111.0937311,39.3209801] } ,
{"type":"Point","properties": { "name":" Utsunomiya Univeristy " ,"count":"2"} ,"coordinates":[139.9281502,36.5539142] } ,
{"type":"Point","properties": { "name":" Vanderbilt University " ,"count":"23"} ,"coordinates":[-86.8026551,36.1447034] } ,
{"type":"Point","properties": { "name":" Vietnam National University " ,"count":"1"} ,"coordinates":[106.6953788,10.7826687] } ,
{"type":"Point","properties": { "name":" Villanova University " ,"count":"1"} ,"coordinates":[-75.3373504,40.0349011] } ,
{"type":"Point","properties": { "name":" Virginia Polytechnic Institute and State University " ,"count":"1"} ,"coordinates":[-80.4234167,37.2283843] } ,
{"type":"Point","properties": { "name":" Viterbo University " ,"count":"1"} ,"coordinates":[-91.245296,43.802044] } ,
{"type":"Point","properties": { "name":"VU medisch centrum De Boelelaan 1117 1081 HZ Amsterdam " ,"count":"2"} ,"coordinates":[4.8595247,52.3351368] } ,
{"type":"Point","properties": { "name":" Wake Forest University " ,"count":"1"} ,"coordinates":[-80.2814496,36.1298424] } ,
{"type":"Point","properties": { "name":" Washington University in St. Louis " ,"count":"5"} ,"coordinates":[-90.3107962,38.6487895] } ,
{"type":"Point","properties": { "name":" Wayne State University " ,"count":"1"} ,"coordinates":[-83.0665462,42.3591388] } ,
{"type":"Point","properties": { "name":" Western University " ,"count":"10"} ,"coordinates":[-81.2737336,43.0095971] } ,
{"type":"Point","properties": { "name":" Xi’an Jiaotong University " ,"count":"1"} ,"coordinates":[108.98371,34.250575] } ,
{"type":"Point","properties": { "name":" Yonsei University (Korea" ,"count":"10"} ,"coordinates":[126.938572,37.565784] } ]}}
